[
{"Name":"Panadería La Semilla","Address":"Carrera 62  75 B 02,Bogotá,Colombia","LatLng":"4.684334199999999, -74.08340129999999"},
{"Name":"El Jardin de las Abejas","Address":"Carrera 58  70 C 17,Bogotá,Colombia","LatLng":"4.6840334, -74.09171349999997"},
{"Name":"Almacen J.E.B","Address":"Calle 68  59 22,Bogotá,Colombia","LatLng":"4.6205653, -74.12229860000002"},
{"Name":"Peslac","Address":"Carrera 68 H 77  57,Bogotá,Colombia","LatLng":"4.7376836, -74.06116789999999"},
{"Name":"Productos Naturales Maya Light","Address":"Avenida Calle 72 70  05,Bogotá,Colombia","LatLng":"4.670823, -74.0814125"},
{"Name":"Peslac","Address":"Carrera 70  72  25,Bogotá,Colombia","LatLng":"4.6842279, -74.09145690000003"},
{"Name":"Bello Sol","Address":"Calle 80  73 B 16,Bogotá,Colombia","LatLng":"4.7075075, -74.10417589999997"},
{"Name":"La Gran Vida","Address":"Transversal 76  81 I 46,Bogotá,Colombia","LatLng":"4.7006992, -74.09167680000002"},
{"Name":"Tienda Naturista Martha Cecilia","Address":"Calle 80  94 - 18,Bogotá,Colombia","LatLng":"4.706653999999999, -74.10761000000002"},
{"Name":"Alimentos","Address":"Calle 82  92 09,Bogotá,Colombia","LatLng":"4.696414499999999, -74.09144959999998"},
{"Name":"Salsamentaria la 80","Address":"Calle 80  102 - 12,Bogotá,Colombia","LatLng":"4.6515523, -74.05056050000002"},
{"Name":"La Cava","Address":"Calle 75  100 A 79,Bogotá,Colombia","LatLng":"4.6616586, -74.05571650000002"},
{"Name":"Milena Daza","Address":"Calle72  96 23,Bogotá,Colombia","LatLng":"4.7013042, -74.11353880000001"},
{"Name":"Cooratiendas Pedregal","Address":"Calle 71 B 100 A 34,Bogotá,Colombia","LatLng":"4.711228999999999, -74.1137445"},
{"Name":"Quesos y Pez","Address":"Calle 72  101 05,Bogotá,Colombia","LatLng":"4.6361761, -74.20504449999999"},
{"Name":"Peslac Alamos","Address":"Calle 72  102 12,Bogotá,Colombia","LatLng":"4.717726, -74.12239110000002"},
{"Name":"Tienda Naturista Vital","Address":"Calle 72  103 13,Bogotá,Colombia","LatLng":"4.706475, -74.11528299999998"},
{"Name":"Maniangelitos","Address":"Calle 77  112 B 17,Bogotá,Colombia","LatLng":"4.7183902, -74.1211596"},
{"Name":"Alexander","Address":"Calle 78  112 F 53,Bogotá,Colombia","LatLng":"4.7043399, -74.11722410000004"},
{"Name":"Pronto Villas","Address":"Carrera 112 A  78 D 39,Bogotá,Colombia","LatLng":"4.7057303, -74.11813269999999"},
{"Name":"Rocio Natural","Address":"Carrera 112 A  78 F 27,Bogotá,Colombia","LatLng":"4.7183902, -74.1211596"},
{"Name":"Villas Pinzón","Address":"Calle 79  112 C 04,Bogotá,Colombia","LatLng":"4.7223489, -74.12146869999998"},
{"Name":"Peslac","Address":"Carrera 113  78 F 41,Bogotá,Colombia","LatLng":"4.723726, -74.11028799999997"},
{"Name":"Salsamentaria Fruver","Address":"Calle 80   114 - 20,Bogotá,Colombia","LatLng":"4.723726, -74.11028799999997"},
{"Name":"Autoservicio Ciudadela","Address":"Carrera 111 A  86 A 32,Bogotá,Colombia","LatLng":"4.7188016, -74.11049530000003"},
{"Name":"Cooratiendas Hermes","Address":"Carrera 111 A  86 D 10,Bogotá,Colombia","LatLng":"4.6635623, -74.05441689999998"},
{"Name":"El portal de Bolivia","Address":"Carrera 103 D  83 87,Bogotá,Colombia","LatLng":"4.717733600000001, -74.11154850000003"},
{"Name":"Market Express","Address":"Carrera 103 D  83 05,Bogotá,Colombia","LatLng":"4.6916471, -74.0341024"},
{"Name":"Rico Queso","Address":"Calle 60  57 34,Bogotá,Colombia","LatLng":"4.6541893, -74.08711819999996"},

{"Name":"Lacteos la 51 ","Address":"Calle 51  16 A 54,Bogotá,Colombia","LatLng":"4.7047034, -74.10902970000001"},
{"Name":"La Fontina","Address":"Calle 51  24 59,Bogotá,Colombia","LatLng":"4.7121148, -74.11407759999997"},
{"Name":"Salsamentaria","Address":"Carrera 94  75 A 03,Bogotá,Colombia","LatLng":"4.6741, -74.11221599999999"},
{"Name":"Gran Hogar","Address":"Carrera 95  83 82,Bogotá,Colombia","LatLng":"4.711228999999999, -74.1137445"},
{"Name":"Peslac","Address":"Calle 86  95 F 72,Bogotá,Colombia","LatLng":"4.6397232, -74.07482199999998"},
{"Name":"Mercapatty","Address":"Calle 80  102 40,Bogotá,Colombia","LatLng":"4.7162254, -74.12085209999998"},
{"Name":"Mega Express","Address":"Calle 80  102 12,Bogotá,Colombia","LatLng":"4.7113492, -74.10411669999996"},
{"Name":"Cooratiendas 243","Address":"Calle 79 Bis  107 B 15,Bogotá,Colombia","LatLng":"4.7142836, -74.11814679999998"},
{"Name":"Fortaleza","Address":"Diagonal 78 C  107 33,Bogotá,Colombia","LatLng":"4.714201399999999, -74.10574989999998"},
{"Name":"Salsamentaria","Address":"Calle 78  111 18,Bogotá,Colombia","LatLng":"4.6791649, -74.07799190000003"},
{"Name":"La Esquina","Address":"Calle 72  112 A 43,Bogotá,Colombia","LatLng":"4.6741, -74.11221599999999"},
{"Name":"Peslac","Address":"Carrera 111 C  70 B 76,Bogotá,Colombia","LatLng":"4.7121148, -74.11407759999997"},
{"Name":"Cooratiendas","Address":"Carrera 112  68 A 11,Bogotá,Colombia","LatLng":"4.711228999999999, -74.1137445"},
{"Name":"Puerto Rico","Address":"Carrera 116 B  70 A 41,Bogotá,Colombia","LatLng":"4.6791649, -74.07799190000003"},
{"Name":"Merkaprecio","Address":"Calle 70 A Bis  116 B 10,Bogotá,Colombia","LatLng":"4.7142836, -74.11814679999998"},
{"Name":"Merkaprecio 2","Address":"Calle 70 A Bis  116 C 04,Bogotá,Colombia","LatLng":"4.6397232, -74.07482199999998"},
{"Name":"Rompeprecios","Address":"Calle 69  117 17,Bogotá,Colombia","LatLng":"4.7162254, -74.12085209999998"},
{"Name":"La Gran 67 dos","Address":"Carrera 116  66 A 26,Bogotá,Colombia","LatLng":"4.7047034, -74.10902970000001"},
{"Name":"La Gran 67","Address":"Calle 67  115 15,Bogotá,Colombia","LatLng":"4.7113492, -74.10411669999996"},
{"Name":"Rapimercar","Address":"Calle 64  114 18,Bogotá,Colombia","LatLng":"4.714201399999999, -74.10574989999998"},
{"Name":"Dislacteos Engativá","Address":"Carrera 117  63 I 29,Bogotá,Colombia","LatLng":"4.707152199999999, -74.12303980000002"},
{"Name":"La Esquina 112","Address":"Carrera 112  64 C 22,Bogotá,Colombia","LatLng":"4.6556917, -74.05859829999997"},
{"Name":"Los Bucaros","Address":"Carrera 110  68 C 64,Bogotá,Colombia","LatLng":"4.710994299999999, -74.14109989999997"},
{"Name":"Compremax","Address":"Calle 71 A  107 A 26,Bogotá,Colombia","LatLng":"4.6148026, -74.08808019999998"},
{"Name":"R.C.","Address":"Calle 71 A  107 41,Bogotá,Colombia","LatLng":"4.7196329, -74.11365940000002"},
{"Name":"Compremax","Address":"Carrera 106 A 70 C 21,Bogotá,Colombia","LatLng":"4.7043287, -74.13394740000001"},
{"Name":"Super express","Address":"Calle 70 D Bis A  105 A 41,Bogotá,Colombia","LatLng":"4.7376836, -74.06116789999999"},
{"Name":"El Centavo Menos de la 47","Address":"Carrera 58  70 B 02,Bogotá,Colombia","LatLng":"4.707860999999999, -74.12331610000001"},
{"Name":"Santa Cruz","Address":"Carrera 28 A  17 44 ,Bogotá,Colombia","LatLng":"4.606782, -74.08325250000001"},
{"Name":"Miarelly","Address":"Calle 13  18 03,Bogotá,Colombia","LatLng":"4.7061456, -74.1219514"},
{"Name":"Palacio del Mani","Address":"Calle 13  17 06,Bogotá,Colombia","LatLng":"4.660591699999999, -74.05393179999999"},
{"Name":"Oscar Mauricio","Address":"Calle 8 Sur  35 36,Bogotá,Colombia","LatLng":"4.6691706, -74.13334780000002"},
{"Name":"Carlos Julio","Address":"Calle 8 Sur  37 24,Bogotá,Colombia","LatLng":"4.6030031, -74.11193349999996"},
{"Name":"Villa Lacteos","Address":"Carrera 40  2 07,Bogotá,Colombia","LatLng":"4.6093515, -74.11290610000003"},
{"Name":"Mariana ","Address":"Calle 2 B  40 D 29,Bogotá,Colombia","LatLng":"4.61055, -74.10788919999999"},
{"Name":"Los Diamantes","Address":"Calle 3  38 A 10,Bogotá,Colombia","LatLng":"4.606302599999999, -74.08225419999997"},
{"Name":"J.R.","Address":"Calle 4  38 18,Bogotá,Colombia","LatLng":"4.6660618, -74.1362269"},
{"Name":"Capellania Express","Address":"Calle 19 A  91 05,Bogotá,Colombia","LatLng":"4.601469499999999, -74.11041590000002"},
{"Name":"Pradera","Address":"Carrera 92  22 09,Bogotá,Colombia","LatLng":"4.6112337, -74.11398070000001"},
{"Name":"Rapilider","Address":"Calle 77  98 24,Bogotá,Colombia","LatLng":"4.5870079, -74.08808090000002"},
{"Name":"Peslac","Address":"Calle 17  98 64,Bogotá,Colombia","LatLng":"4.6767635, -74.14413259999998"},
{"Name":"Juan David","Address":"Carrera 100  16 H 77,Bogotá,Colombia","LatLng":"4.6719364, -74.14501810000002"},
{"Name":"Frescuras del campo","Address":"Carrera 100  16 H 47,Bogotá,Colombia","LatLng":"4.723726, -74.11028799999997"},
{"Name":"Supermercado","Address":"Carrera 111 A  16 H 09,Bogotá,Colombia","LatLng":"4.6759204, -74.14373410000002"},
{"Name":"La Cativita","Address":"Carrera 111 A  16 I 55,Bogotá,Colombia","LatLng":"4.6781484, -74.14813449999997"},
{"Name":"El Orito","Address":"Calle 18  111 A 03,Bogotá,Colombia","LatLng":"4.6759299, -74.14372249999997"},
{"Name":"Las Delicias","Address":"Calle 18  106 55,Bogotá,Colombia","LatLng":"4.600925, -74.06679250000002"},
{"Name":"La Canasta","Address":"Carrera 103 A  20 30,Bogotá,Colombia","LatLng":"4.672098, -74.14712800000001"},
{"Name":"Yolanda Romero","Address":"Carrera 102  20 02,Bogotá,Colombia","LatLng":"4.723726, -74.11028799999997"},
{"Name":"Surtidora Fontibón","Address":"Carrera 102  19 98,Bogotá,Colombia","LatLng":"4.672098, -74.14712800000001"},
{"Name":"Dislacteos Los Alpes","Address":"Calle 20  102 03,Bogotá,Colombia","LatLng":"4.6759431, -74.14373999999998"},
{"Name":"Dislacteos Los Alpes","Address":"Calle 20  102 23,Bogotá,Colombia","LatLng":"4.6756651, -74.14476130000003"},
{"Name":"Cifuentes","Address":"Calle 19  102 53,Bogotá,Colombia","LatLng":"4.6760681, -74.14384310000003"},
{"Name":"Tienda Naturista","Address":"Calle 100  22 G 03,Bogotá,Colombia","LatLng":"4.629085, -74.17003629999999"},
{"Name":"El Triunfo ","Address":"Calle 70 A  86 A 24,Bogotá,Colombia","LatLng":"4.6990853, -74.1259647"},
{"Name":"La Molienda","Address":"Carrera 86 Bis  86 27,Bogotá,Colombia","LatLng":"4.675075, -74.1495582"},
{"Name":"Tienda Rosita","Address":"Carrera 105 C  64 C 10 ,Bogotá,Colombia","LatLng":"4.6989339, -74.12348529999997"},
{"Name":"Mercados Latinos","Address":"Carrera 105 D  04,Bogotá,Colombia","LatLng":"4.681487, -74.09296499999999"},
{"Name":"Mercados Premier","Address":"Carrera 105 T  64 B 20,Bogotá,Colombia","LatLng":"4.6899719, -74.06589859999997"},
{"Name":"Ahorramas","Address":"Carrera 110 Bis  64 97,Bogotá,Colombia","LatLng":"4.7017286, -74.1303504"},
{"Name":"Cofimercar","Address":"Carrera 82  77 50,Bogotá,Colombia","LatLng":"4.546428199999999, -74.11037090000002"},
{"Name":"Champion","Address":"Calle 81 A  81  31 ,Bogotá,Colombia","LatLng":"4.6496829, -74.17116829999998"},
{"Name":"Salsamentaria San Carlos","Address":"Calle 24  80 B 67,Bogotá,Colombia","LatLng":"4.650732700000001, -74.06893009999999"},
{"Name":"Tienda Naturista Variedades","Address":"Carrera 92  21 15,Bogotá,Colombia","LatLng":"4.6808666, -74.05548139999996"},
{"Name":"Luis Carlos Plazas Tierra Bueno","Address":"Calle 34 Bis  95 A 10,Bogotá,Colombia","LatLng":"4.635646899999999, -74.0623559"},
{"Name":"Cereales Juana","Address":"Calle 48 C  07,Bogotá,Colombia","LatLng":"4.699328, -74.09931970000002"},
{"Name":"Matica de Bambú","Address":"Calle 64  20 15,Bogotá,Colombia","LatLng":"4.6675057, -74.11110070000001"},
{"Name":"Tienda Naturista Chaigh","Address":"Carrera 19 F  63 30,Bogotá,Colombia","LatLng":"4.654550500000001, -74.06926149999998"},
{"Name":"Tienda Naturista Manantial Natural","Address":"Diagonal 49  53 A 49,Bogotá,Colombia","LatLng":"4.7015706, -74.09717230000001"},
{"Name":"Tienda Naturista La salud","Address":"Diagonal 49  48 08,Bogotá,Colombia","LatLng":"4.6674372, -74.12103339999999"},
{"Name":"Tienda Naturista Riqueza Natural","Address":"Diagonal 47  53 65,Bogotá,Colombia","LatLng":"4.6472929, -74.08524410000001"},
{"Name":"Tienda Naturista Vida Natural","Address":"Carrera 53  47 06,Bogotá,Colombia","LatLng":"4.6471346, -74.0876973"},
{"Name":"Tienda Naturista Plenitud","Address":"Carrera 53  46 14,Bogotá,Colombia","LatLng":"4.6458878, -74.08509300000003"},
{"Name":"FontiQuesos","Address":"Calle 52  46 09,Bogotá,Colombia","LatLng":"4.6047464, -74.07298550000002"},
{"Name":"La Bonanza","Address":"Carrera 52 A  47 A 10,Bogotá,Colombia","LatLng":"4.604310799999999, -74.07324670000003"},
{"Name":"El Corral","Address":"Carrera 4 A  26 B 01,Bogotá,Colombia","LatLng":"4.6064517, -74.0718726"},
{"Name":"Vida Natural","Address":"Carrera 8  19 75,Bogotá,Colombia","LatLng":"4.604293999999999, -74.07325679999997"},
{"Name":"Hiper Centro","Address":"Carrera 8  17 19,Bogotá,Colombia","LatLng":"4.6134029, -74.06648669999998"},
{"Name":"Helios # 2","Address":"Carrera 8  17 21,Bogotá,Colombia","LatLng":"4.5921883, -74.13843680000002"},
{"Name":"Luzverde","Address":"Carrera 8  17 73,Bogotá,Colombia","LatLng":"4.5973419, -74.13322219999998"},
{"Name":"Suplement","Address":"Carrera 8  17 79,Bogotá,Colombia","LatLng":"4.60427, -74.07354620000001"},
{"Name":"Heliopolis","Address":"Carrera 8  18 49,Bogotá,Colombia","LatLng":"4.6047968, -74.07295540000001"},
{"Name":"Olimpo","Address":"Carrera 8  18 21,Bogotá,Colombia","LatLng":"4.6032604, -74.0739595"},
{"Name":"Vital","Address":"Calle 18  8 34,Bogotá,Colombia","LatLng":"4.605105399999999, -74.07301369999999"},
{"Name":"Higea","Address":"Calle 18  8 79,Bogotá,Colombia","LatLng":"4.605366099999999, -74.07338629999998"},
{"Name":"Naturcentro","Address":"Carrera 9  17 88,Bogotá,Colombia","LatLng":"4.6050699, -74.07265080000002"},
{"Name":"Urania","Address":"Calle 17  8 37,Bogotá,Colombia","LatLng":"4.6053366, -74.07353060000003"},
{"Name":"Celeste","Address":"Carrera 8  16 11,Bogotá,Colombia","LatLng":"4.6052864, -74.07253170000001"},
{"Name":"Veracruz","Address":"Calle 16  8 32,Bogotá,Colombia","LatLng":"4.603229799999999, -74.073689"}
]